{"type":"FeatureCollection","name":"市名","features":[{"type":"Feature","geometry":{"type":"Point","coordinates":[113.7210268563,39.8998683152]},"properties":{"name":"大同市","adcode_s":"1402","adcode":"140200","个数":1,"adcode_si":"14","name_12":"山西省","adcode_1":"140000"}},{"type":"Feature","geometry":{"type":"Point","coordinates":[112.706929196,35.6104008001]},"properties":{"name":"晋城市","adcode_s":"1405","adcode":"140500","个数":1,"adcode_si":"14","name_12":"山西省","adcode_1":"140000"}},{"type":"Feature","geometry":{"type":"Point","coordinates":[112.960720144,37.3268909244]},"properties":{"name":"晋中市","adcode_s":"1407","adcode":"140700","个数":1,"adcode_si":"14","name_12":"山西省","adcode_1":"140000"}},{"type":"Feature","geometry":{"type":"Point","coordinates":[111.3772346316,36.2267859559]},"properties":{"name":"临汾市","adcode_s":"1410","adcode":"141000","个数":1,"adcode_si":"14","name_12":"山西省","adcode_1":"140000"}},{"type":"Feature","geometry":{"type":"Point","coordinates":[111.2616565844,37.6787694186]},"properties":{"name":"吕梁市","adcode_s":"1411","adcode":"141100","个数":1,"adcode_si":"14","name_12":"山西省","adcode_1":"140000"}},{"type":"Feature","geometry":{"type":"Point","coordinates":[112.31166987,39.6877114168]},"properties":{"name":"朔州市","adcode_s":"1406","adcode":"140600","个数":1,"adcode_si":"14","name_12":"山西省","adcode_1":"140000"}},{"type":"Feature","geometry":{"type":"Point","coordinates":[112.32959076,37.8808655583]},"properties":{"name":"太原市","adcode_s":"1401","adcode":"140100","个数":1,"adcode_si":"14","name_12":"山西省","adcode_1":"140000"}},{"type":"Feature","geometry":{"type":"Point","coordinates":[112.44962214,38.6832905547]},"properties":{"name":"忻州市","adcode_s":"1409","adcode":"140900","个数":1,"adcode_si":"14","name_12":"山西省","adcode_1":"140000"}},{"type":"Feature","geometry":{"type":"Point","coordinates":[113.4972113303,38.0635495942]},"properties":{"name":"阳泉市","adcode_s":"1403","adcode":"140300","个数":1,"adcode_si":"14","name_12":"山西省","adcode_1":"140000"}},{"type":"Feature","geometry":{"type":"Point","coordinates":[111.063737073,35.1870734103]},"properties":{"name":"运城市","adcode_s":"1408","adcode":"140800","个数":1,"adcode_si":"14","name_12":"山西省","adcode_1":"140000"}},{"type":"Feature","geometry":{"type":"Point","coordinates":[112.9159238966,36.4754294417]},"properties":{"name":"长治市","adcode_s":"1404","adcode":"140400","个数":1,"adcode_si":"14","name_12":"山西省","adcode_1":"140000"}}]}