{"type":"FeatureCollection","name":"市名","features":[{"type":"Feature","geometry":{"type":"Point","coordinates":[82.572000885,41.0178959716]},"properties":{"name":"阿克苏地区","adcode_s":"6529","adcode":"652900","个数":1,"adcode_si":"65","name_12":"新疆维吾尔自治区","adcode_1":"650000"}},{"type":"Feature","geometry":{"type":"Point","coordinates":[88.299621582,46.0731710706]},"properties":{"name":"阿勒泰地区","adcode_s":"6543","adcode":"654300","个数":1,"adcode_si":"65","name_12":"新疆维吾尔自治区","adcode_1":"650000"}},{"type":"Feature","geometry":{"type":"Point","coordinates":[87.4705877478,39.4933636898]},"properties":{"name":"巴音郭楞蒙古自治州","adcode_s":"6528","adcode":"652800","个数":1,"adcode_si":"65","name_12":"新疆维吾尔自治区","adcode_1":"650000"}},{"type":"Feature","geometry":{"type":"Point","coordinates":[81.8420876195,44.8182178079]},"properties":{"name":"博尔塔拉蒙古自治州","adcode_s":"6527","adcode":"652700","个数":1,"adcode_si":"65","name_12":"新疆维吾尔自治区","adcode_1":"650000"}},{"type":"Feature","geometry":{"type":"Point","coordinates":[89.8004295149,44.3444572978]},"properties":{"name":"昌吉回族自治州","adcode_s":"6523","adcode":"652300","个数":1,"adcode_si":"65","name_12":"新疆维吾尔自治区","adcode_1":"650000"}},{"type":"Feature","geometry":{"type":"Point","coordinates":[92.4804322803,43.0729919052]},"properties":{"name":"哈密市","adcode_s":"6505","adcode":"650500","个数":1,"adcode_si":"65","name_12":"新疆维吾尔自治区","adcode_1":"650000"}},{"type":"Feature","geometry":{"type":"Point","coordinates":[80.9144510374,37.0759830448]},"properties":{"name":"和田地区","adcode_s":"6532","adcode":"653200","个数":1,"adcode_si":"65","name_12":"新疆维吾尔自治区","adcode_1":"650000"}},{"type":"Feature","geometry":{"type":"Point","coordinates":[77.221236439,38.1581572775]},"properties":{"name":"喀什地区","adcode_s":"6531","adcode":"653100","个数":1,"adcode_si":"65","name_12":"新疆维吾尔自治区","adcode_1":"650000"}},{"type":"Feature","geometry":{"type":"Point","coordinates":[84.9453203805,45.2444537666]},"properties":{"name":"克拉玛依市","adcode_s":"6502","adcode":"650200","个数":1,"adcode_si":"65","name_12":"新疆维吾尔自治区","adcode_1":"650000"}},{"type":"Feature","geometry":{"type":"Point","coordinates":[76.1825819395,38.205268828]},"properties":{"name":"克孜勒苏柯尔克孜自治州","adcode_s":"6530","adcode":"653000","个数":1,"adcode_si":"65","name_12":"新疆维吾尔自治区","adcode_1":"650000"}},{"type":"Feature","geometry":{"type":"Point","coordinates":[84.790013976,43.8839664387]},"properties":{"name":"塔城地区","adcode_s":"6542","adcode":"654200","个数":1,"adcode_si":"65","name_12":"新疆维吾尔自治区","adcode_1":"650000"}},{"type":"Feature","geometry":{"type":"Point","coordinates":[89.8180221533,42.3958200236]},"properties":{"name":"吐鲁番市","adcode_s":"6504","adcode":"650400","个数":1,"adcode_si":"65","name_12":"新疆维吾尔自治区","adcode_1":"650000"}},{"type":"Feature","geometry":{"type":"Point","coordinates":[87.7874718147,43.7511818036]},"properties":{"name":"乌鲁木齐市","adcode_s":"6501","adcode":"650100","个数":1,"adcode_si":"65","name_12":"新疆维吾尔自治区","adcode_1":"650000"}},{"type":"Feature","geometry":{"type":"Point","coordinates":[82.0738600845,43.4334928447]},"properties":{"name":"伊犁哈萨克自治州","adcode_s":"6540","adcode":"654000","个数":1,"adcode_si":"65","name_12":"新疆维吾尔自治区","adcode_1":"650000"}},{"type":"Feature","geometry":{"type":"Point","coordinates":[81.3207025463,40.5935459033]},"properties":{"name":"自治区直辖县级行政单位","adcode_s":"6590","adcode":"659000","个数":1,"adcode_si":"65","name_12":"新疆维吾尔自治区","adcode_1":"650000"}}]}