{"type":"FeatureCollection","name":"市名","features":[{"type":"Feature","geometry":{"type":"Point","coordinates":[109.4050408434,19.5683030674]},"properties":{"name":"儋州市","adcode_s":"4604","adcode":"460400","个数":1,"adcode_si":"46","name_12":"海南省","adcode_1":"460000"}},{"type":"Feature","geometry":{"type":"Point","coordinates":[110.4198739088,19.8313233926]},"properties":{"name":"海口市","adcode_s":"4601","adcode":"460100","个数":1,"adcode_si":"46","name_12":"海南省","adcode_1":"460000"}},{"type":"Feature","geometry":{"type":"Point","coordinates":[114.269294059,7.7496920685]},"properties":{"name":"三沙市","adcode_s":"4603","adcode":"460300","个数":1,"adcode_si":"46","name_12":"海南省","adcode_1":"460000"}},{"type":"Feature","geometry":{"type":"Point","coordinates":[109.417545417,18.3936917844]},"properties":{"name":"三亚市","adcode_s":"4602","adcode":"460200","个数":1,"adcode_si":"46","name_12":"海南省","adcode_1":"460000"}},{"type":"Feature","geometry":{"type":"Point","coordinates":[109.3467537346,19.2120072063]},"properties":{"name":"白沙黎族自治县","adcode_s":"4690","adcode":"469025","个数":1,"adcode_si":"46","name_12":"海南省","adcode_1":"460000"}},{"type":"Feature","geometry":{"type":"Point","coordinates":[109.6489362019,18.5956836973]},"properties":{"name":"保亭黎族苗族自治县","adcode_s":"4690","adcode":"469029","个数":1,"adcode_si":"46","name_12":"海南省","adcode_1":"460000"}},{"type":"Feature","geometry":{"type":"Point","coordinates":[108.973555,19.3279328189]},"properties":{"name":"昌江黎族自治县","adcode_s":"4690","adcode":"469026","个数":1,"adcode_si":"46","name_12":"海南省","adcode_1":"460000"}},{"type":"Feature","geometry":{"type":"Point","coordinates":[109.9846815097,19.6901307616]},"properties":{"name":"澄迈县","adcode_s":"4690","adcode":"469023","个数":1,"adcode_si":"46","name_12":"海南省","adcode_1":"460000"}},{"type":"Feature","geometry":{"type":"Point","coordinates":[110.3040898432,19.4867438468]},"properties":{"name":"定安县","adcode_s":"4690","adcode":"469021","个数":1,"adcode_si":"46","name_12":"海南省","adcode_1":"460000"}},{"type":"Feature","geometry":{"type":"Point","coordinates":[108.8403543169,18.9936391989]},"properties":{"name":"东方市","adcode_s":"4690","adcode":"469007","个数":1,"adcode_si":"46","name_12":"海南省","adcode_1":"460000"}},{"type":"Feature","geometry":{"type":"Point","coordinates":[109.0478462938,18.6503998544]},"properties":{"name":"乐东黎族自治县","adcode_s":"4690","adcode":"469027","个数":1,"adcode_si":"46","name_12":"海南省","adcode_1":"460000"}},{"type":"Feature","geometry":{"type":"Point","coordinates":[109.9482221005,18.5647445942]},"properties":{"name":"陵水黎族自治县","adcode_s":"4690","adcode":"469028","个数":1,"adcode_si":"46","name_12":"海南省","adcode_1":"460000"}},{"type":"Feature","geometry":{"type":"Point","coordinates":[110.4004792735,19.2101064327]},"properties":{"name":"琼海市","adcode_s":"4690","adcode":"469002","个数":1,"adcode_si":"46","name_12":"海南省","adcode_1":"460000"}},{"type":"Feature","geometry":{"type":"Point","coordinates":[109.8504612056,19.0324416639]},"properties":{"name":"琼中黎族苗族自治县","adcode_s":"4690","adcode":"469030","个数":1,"adcode_si":"46","name_12":"海南省","adcode_1":"460000"}},{"type":"Feature","geometry":{"type":"Point","coordinates":[110.0453784419,19.3424311237]},"properties":{"name":"屯昌县","adcode_s":"4690","adcode":"469022","个数":1,"adcode_si":"46","name_12":"海南省","adcode_1":"460000"}},{"type":"Feature","geometry":{"type":"Point","coordinates":[110.2864520955,18.8390948342]},"properties":{"name":"万宁市","adcode_s":"4690","adcode":"469006","个数":1,"adcode_si":"46","name_12":"海南省","adcode_1":"460000"}},{"type":"Feature","geometry":{"type":"Point","coordinates":[110.7689010561,19.7467995267]},"properties":{"name":"文昌市","adcode_s":"4690","adcode":"469005","个数":1,"adcode_si":"46","name_12":"海南省","adcode_1":"460000"}},{"type":"Feature","geometry":{"type":"Point","coordinates":[109.5044151656,18.8291508192]},"properties":{"name":"五指山市","adcode_s":"4690","adcode":"469001","个数":1,"adcode_si":"46","name_12":"海南省","adcode_1":"460000"}},{"type":"Feature","geometry":{"type":"Point","coordinates":[109.7122775894,19.8020824853]},"properties":{"name":"临高县","adcode_s":"4690","adcode":"469024","个数":1,"adcode_si":"46","name_12":"海南省","adcode_1":"460000"}}]}