{"type":"FeatureCollection","name":"市名","features":[{"type":"Feature","geometry":{"type":"Point","coordinates":[108.9263243276,32.7574737567]},"properties":{"name":"安康市","adcode_s":"6109","adcode":"610900","个数":1,"adcode_si":"61","name_12":"陕西省","adcode_1":"610000"}},{"type":"Feature","geometry":{"type":"Point","coordinates":[107.1998632227,34.3792983494]},"properties":{"name":"宝鸡市","adcode_s":"6103","adcode":"610300","个数":1,"adcode_si":"61","name_12":"陕西省","adcode_1":"610000"}},{"type":"Feature","geometry":{"type":"Point","coordinates":[107.1014893445,33.0913239684]},"properties":{"name":"汉中市","adcode_s":"6107","adcode":"610700","个数":1,"adcode_si":"61","name_12":"陕西省","adcode_1":"610000"}},{"type":"Feature","geometry":{"type":"Point","coordinates":[109.9009686749,33.6477503671]},"properties":{"name":"商洛市","adcode_s":"6110","adcode":"611000","个数":1,"adcode_si":"61","name_12":"陕西省","adcode_1":"610000"}},{"type":"Feature","geometry":{"type":"Point","coordinates":[109.0334533611,35.1961067423]},"properties":{"name":"铜川市","adcode_s":"6102","adcode":"610200","个数":1,"adcode_si":"61","name_12":"陕西省","adcode_1":"610000"}},{"type":"Feature","geometry":{"type":"Point","coordinates":[109.8494645259,34.9488118283]},"properties":{"name":"渭南市","adcode_s":"6105","adcode":"610500","个数":1,"adcode_si":"61","name_12":"陕西省","adcode_1":"610000"}},{"type":"Feature","geometry":{"type":"Point","coordinates":[108.7905327818,34.1073374597]},"properties":{"name":"西安市","adcode_s":"6101","adcode":"610100","个数":1,"adcode_si":"61","name_12":"陕西省","adcode_1":"610000"}},{"type":"Feature","geometry":{"type":"Point","coordinates":[108.3899149759,34.7850055294]},"properties":{"name":"咸阳市","adcode_s":"6104","adcode":"610400","个数":1,"adcode_si":"61","name_12":"陕西省","adcode_1":"610000"}},{"type":"Feature","geometry":{"type":"Point","coordinates":[109.315168857,36.436856617]},"properties":{"name":"延安市","adcode_s":"6106","adcode":"610600","个数":1,"adcode_si":"61","name_12":"陕西省","adcode_1":"610000"}},{"type":"Feature","geometry":{"type":"Point","coordinates":[109.5647635746,38.0387267234]},"properties":{"name":"榆林市","adcode_s":"6108","adcode":"610800","个数":1,"adcode_si":"61","name_12":"陕西省","adcode_1":"610000"}}]}