{"type":"FeatureCollection","name":"市名","features":[{"type":"Feature","geometry":{"type":"Point","coordinates":[99.4405630724,34.0988887314]},"properties":{"name":"果洛藏族自治州","adcode_s":"6326","adcode":"632600","个数":1,"adcode_si":"63","name_12":"青海省","adcode_1":"630000"}},{"type":"Feature","geometry":{"type":"Point","coordinates":[100.3023539555,37.7578235627]},"properties":{"name":"海北藏族自治州","adcode_s":"6322","adcode":"632200","个数":1,"adcode_si":"63","name_12":"青海省","adcode_1":"630000"}},{"type":"Feature","geometry":{"type":"Point","coordinates":[102.343397155,36.331269048]},"properties":{"name":"海东市","adcode_s":"6302","adcode":"630200","个数":1,"adcode_si":"63","name_12":"青海省","adcode_1":"630000"}},{"type":"Feature","geometry":{"type":"Point","coordinates":[100.2513377119,35.9015674189]},"properties":{"name":"海南藏族自治州","adcode_s":"6325","adcode":"632500","个数":1,"adcode_si":"63","name_12":"青海省","adcode_1":"630000"}},{"type":"Feature","geometry":{"type":"Point","coordinates":[94.93509069,36.9982604877]},"properties":{"name":"海西蒙古族藏族自治州","adcode_s":"6328","adcode":"632800","个数":1,"adcode_si":"63","name_12":"青海省","adcode_1":"630000"}},{"type":"Feature","geometry":{"type":"Point","coordinates":[101.57019021,34.8506813679]},"properties":{"name":"黄南藏族自治州","adcode_s":"6323","adcode":"632300","个数":1,"adcode_si":"63","name_12":"青海省","adcode_1":"630000"}},{"type":"Feature","geometry":{"type":"Point","coordinates":[101.4369985996,36.8291973071]},"properties":{"name":"西宁市","adcode_s":"6301","adcode":"630100","个数":1,"adcode_si":"63","name_12":"青海省","adcode_1":"630000"}},{"type":"Feature","geometry":{"type":"Point","coordinates":[94.3232236743,34.2142766648]},"properties":{"name":"玉树藏族自治州","adcode_s":"6327","adcode":"632700","个数":1,"adcode_si":"63","name_12":"青海省","adcode_1":"630000"}}]}