{
	"type" : "FeatureCollection",
	"name" : "县名2",
	"features" : [
		{
			"type" : "Feature",
			"geometry" : {
				"type" : "Point",
				"coordinates" : [ 111.34839042, 28.3695561377 ]
			},
			"properties" : {
				"name" : "安化县",
				"adcode" : "430923",
				"adcode_s" : "4309",
				"adcode_si" : "43",
				"dname" : "益阳市"
			}
		},
		{
			"type" : "Feature",
			"geometry" : {
				"type" : "Point",
				"coordinates" : [ 112.4315464478, 28.476392238 ]
			},
			"properties" : {
				"name" : "赫山区",
				"adcode" : "430903",
				"adcode_s" : "4309",
				"adcode_si" : "43",
				"dname" : "益阳市"
			}
		},
		{
			"type" : "Feature",
			"geometry" : {
				"type" : "Point",
				"coordinates" : [ 112.337841645, 29.2555249956 ]
			},
			"properties" : {
				"name" : "南县",
				"adcode" : "430921",
				"adcode_s" : "4309",
				"adcode_si" : "43",
				"dname" : "益阳市"
			}
		},
		{
			"type" : "Feature",
			"geometry" : {
				"type" : "Point",
				"coordinates" : [ 111.9783237016, 28.4612254055 ]
			},
			"properties" : {
				"name" : "桃江县",
				"adcode" : "430922",
				"adcode_s" : "4309",
				"adcode_si" : "43",
				"dname" : "益阳市"
			}
		},
		{
			"type" : "Feature",
			"geometry" : {
				"type" : "Point",
				"coordinates" : [ 112.5547324839, 28.9733709704 ]
			},
			"properties" : {
				"name" : "沅江市",
				"adcode" : "430981",
				"adcode_s" : "4309",
				"adcode_si" : "43",
				"dname" : "益阳市"
			}
		},
		{
			"type" : "Feature",
			"geometry" : {
				"type" : "Point",
				"coordinates" : [ 112.35095208, 28.6571668481 ]
			},
			"properties" : {
				"name" : "资阳区",
				"adcode" : "430902",
				"adcode_s" : "4309",
				"adcode_si" : "43",
				"dname" : "益阳市"
			}
		}
	]
}