{
	"type" : "FeatureCollection",
	"name" : "县名2",
	"features" : [
		{
			"type" : "Feature",
			"geometry" : {
				"type" : "Point",
				"coordinates" : [ 110.4558735199, 22.5255156536 ]
			},
			"properties" : {
				"name" : "北流市",
				"adcode" : "450981",
				"adcode_s" : "4509",
				"adcode_si" : "45",
				"dname" : "玉林市"
			}
		},
		{
			"type" : "Feature",
			"geometry" : {
				"type" : "Point",
				"coordinates" : [ 109.8683683993, 22.0633221758 ]
			},
			"properties" : {
				"name" : "博白县",
				"adcode" : "450923",
				"adcode_s" : "4509",
				"adcode_si" : "45",
				"dname" : "玉林市"
			}
		},
		{
			"type" : "Feature",
			"geometry" : {
				"type" : "Point",
				"coordinates" : [ 110.0030374228, 22.4950961237 ]
			},
			"properties" : {
				"name" : "福绵区",
				"adcode" : "450903",
				"adcode_s" : "4509",
				"adcode_si" : "45",
				"dname" : "玉林市"
			}
		},
		{
			"type" : "Feature",
			"geometry" : {
				"type" : "Point",
				"coordinates" : [ 110.2612561464, 22.2482028679 ]
			},
			"properties" : {
				"name" : "陆川县",
				"adcode" : "450922",
				"adcode_s" : "4509",
				"adcode_si" : "45",
				"dname" : "玉林市"
			}
		},
		{
			"type" : "Feature",
			"geometry" : {
				"type" : "Point",
				"coordinates" : [ 110.5995628216, 22.8281470408 ]
			},
			"properties" : {
				"name" : "容县",
				"adcode" : "450921",
				"adcode_s" : "4509",
				"adcode_si" : "45",
				"dname" : "玉林市"
			}
		},
		{
			"type" : "Feature",
			"geometry" : {
				"type" : "Point",
				"coordinates" : [ 109.9180047117, 22.7952711912 ]
			},
			"properties" : {
				"name" : "兴业县",
				"adcode" : "450924",
				"adcode_s" : "4509",
				"adcode_si" : "45",
				"dname" : "玉林市"
			}
		},
		{
			"type" : "Feature",
			"geometry" : {
				"type" : "Point",
				"coordinates" : [ 110.1537648, 22.628283771 ]
			},
			"properties" : {
				"name" : "玉州区",
				"adcode" : "450902",
				"adcode_s" : "4509",
				"adcode_si" : "45",
				"dname" : "玉林市"
			}
		}
	]
}